[
  {
    "id": 1,
    "region": "West Bengal",
    "district": "Kolkata",
    "city": "Kolkata",
    "covered_area": ["Salt Lake", "Park Street", "Dum Dum", "Tollygunge"],
    "status": "active",
    "flowchart": "https://example.com/kolkata.png",
    "longitude": 88.3639,
    "latitude": 22.5726
  },
  {
    "id": 2,
    "region": "West Bengal",
    "district": "Howrah",
    "city": "Howrah",
    "covered_area": ["Bally", "Uluberia", "Shibpur", "Domjur"],
    "status": "active",
    "flowchart": "https://example.com/howrah.png",
    "longitude": 88.3103,
    "latitude": 22.5958
  },
  {
    "id": 3,
    "region": "West Bengal",
    "district": "North 24 Parganas",
    "city": "Barasat",
    "covered_area": ["Barrackpore", "Madhyamgram", "Habra", "Bongaon"],
    "status": "active",
    "flowchart": "https://example.com/n24p.png",
    "longitude": 88.4814,
    "latitude": 22.7228
  },
  {
    "id": 4,
    "region": "West Bengal",
    "district": "South 24 Parganas",
    "city": "Alipore",
    "covered_area": ["Baruipur", "Sonarpur", "Canning", "Diamond Harbour"],
    "status": "active",
    "flowchart": "https://example.com/s24p.png",
    "longitude": 88.4335,
    "latitude": 22.1352
  },
  {
    "id": 5,
    "region": "West Bengal",
    "district": "Hooghly",
    "city": "Chinsurah",
    "covered_area": ["Serampore", "Chandannagar", "Arambagh", "Bandel"],
    "status": "active",
    "flowchart": "https://example.com/hooghly.png",
    "longitude": 88.3915,
    "latitude": 22.9007
  },
  {
    "id": 6,
    "region": "West Bengal",
    "district": "Nadia",
    "city": "Krishnanagar",
    "covered_area": ["Ranaghat", "Bagula", "Kalyani", "Shantipur", "Tehatta"],
    "status": "active",
    "flowchart": "https://example.com/nadia.png",
    "longitude": 88.5220,
    "latitude": 23.4000
  },
  {
    "id": 7,
    "region": "West Bengal",
    "district": "East Bardhaman",
    "city": "Burdwan",
    "covered_area": ["Kalna", "Katwa", "Memari", "Galsi"],
    "status": "active",
    "flowchart": "https://example.com/ebardhaman.png",
    "longitude": 87.8560,
    "latitude": 23.2324
  },
  {
    "id": 8,
    "region": "West Bengal",
    "district": "West Bardhaman",
    "city": "Asansol",
    "covered_area": ["Durgapur", "Raniganj", "Kulti", "Barakar"],
    "status": "active",
    "flowchart": "https://example.com/wbardhaman.png",
    "longitude": 86.9833,
    "latitude": 23.6739
  },
  {
    "id": 9,
    "region": "West Bengal",
    "district": "Murshidabad",
    "city": "Baharampur",
    "covered_area": ["Jangipur", "Lalgola", "Domkal", "Kandi"],
    "status": "active",
    "flowchart": "https://example.com/murshidabad.png",
    "longitude": 88.2720,
    "latitude": 24.1047
  },
  {
    "id": 10,
    "region": "West Bengal",
    "district": "Malda",
    "city": "Malda",
    "covered_area": ["English Bazar", "Gazole", "Kaliachak", "Harishchandrapur"],
    "status": "active",
    "flowchart": "https://example.com/malda.png",
    "longitude": 88.1411,
    "latitude": 25.0108
  },
  {
    "id": 11,
    "region": "West Bengal",
    "district": "Darjeeling",
    "city": "Darjeeling",
    "covered_area": ["Siliguri", "Kurseong", "Mirik", "Kalimpong"],
    "status": "active",
    "flowchart": "https://example.com/darjeeling.png",
    "longitude": 88.2636,
    "latitude": 27.0410
  },
  {
    "id": 12,
    "region": "West Bengal",
    "district": "Kalimpong",
    "city": "Kalimpong",
    "covered_area": ["Lava", "Loleygaon", "Pedong", "Rishop"],
    "status": "active",
    "flowchart": "https://example.com/kalimpong.png",
    "longitude": 88.4753,
    "latitude": 27.0634
  },
  {
    "id": 13,
    "region": "West Bengal",
    "district": "Jalpaiguri",
    "city": "Jalpaiguri",
    "covered_area": ["Dhupguri", "Malbazar", "Maynaguri", "Nagrakata"],
    "status": "active",
    "flowchart": "https://example.com/jalpaiguri.png",
    "longitude": 88.7205,
    "latitude": 26.5435
  },
  {
    "id": 14,
    "region": "West Bengal",
    "district": "Alipurduar",
    "city": "Alipurduar",
    "covered_area": ["Falakata", "Birpara", "Kumargram", "Kalchini"],
    "status": "active",
    "flowchart": "https://example.com/alipurduar.png",
    "longitude": 89.5229,
    "latitude": 26.4914
  },
  {
    "id": 15,
    "region": "West Bengal",
    "district": "Cooch Behar",
    "city": "Cooch Behar",
    "covered_area": ["Dinhata", "Tufanganj", "Mathabhanga", "Sitalkuchi"],
    "status": "active",
    "flowchart": "https://example.com/coochbehar.png",
    "longitude": 89.4450,
    "latitude": 26.3452
  },
  {
    "id": 16,
    "region": "West Bengal",
    "district": "Uttar Dinajpur",
    "city": "Raiganj",
    "covered_area": ["Islampur", "Kaliaganj", "Goalpokhar", "Karandighi"],
    "status": "active",
    "flowchart": "https://example.com/uttardinajpur.png",
    "longitude": 88.1311,
    "latitude": 25.6168
  },
  {
    "id": 17,
    "region": "West Bengal",
    "district": "Dakshin Dinajpur",
    "city": "Balurghat",
    "covered_area": ["Gangarampur", "Kumarganj", "Hili", "Tapan"],
    "status": "active",
    "flowchart": "https://example.com/dakshindinajpur.png",
    "longitude": 88.7773,
    "latitude": 25.2215
  },
  {
    "id": 18,
    "region": "West Bengal",
    "district": "Bankura",
    "city": "Bankura",
    "covered_area": ["Bishnupur", "Sonamukhi", "Khatra", "Indpur"],
    "status": "active",
    "flowchart": "https://example.com/bankura.png",
    "longitude": 87.0667,
    "latitude": 23.2320
  },
  {
    "id": 19,
    "region": "West Bengal",
    "district": "Purulia",
    "city": "Purulia",
    "covered_area": ["Raghunathpur", "Jhalda", "Bagmundi", "Balarampur"],
    "status": "active",
    "flowchart": "https://example.com/purulia.png",
    "longitude": 86.3667,
    "latitude": 23.3333
  },
  {
    "id": 20,
    "region": "West Bengal",
    "district": "Birbhum",
    "city": "Suri",
    "covered_area": ["Bolpur", "Rampurhat", "Nalhati", "Dubrajpur"],
    "status": "active",
    "flowchart": "https://example.com/birbhum.png",
    "longitude": 87.6186,
    "latitude": 23.9080
  },
  {
    "id": 21,
    "region": "West Bengal",
    "district": "Paschim Medinipur",
    "city": "Medinipur",
    "covered_area": ["Kharagpur", "Ghatal", "Jhargram", "Dantan"],
    "status": "active",
    "flowchart": "https://example.com/pmedinipur.png",
    "longitude": 87.3235,
    "latitude": 22.4250
  },
  {
    "id": 22,
    "region": "West Bengal",
    "district": "Jhargram",
    "city": "Jhargram",
    "covered_area": ["Gopiballavpur", "Nayagram", "Binpur", "Belpahari"],
    "status": "active",
    "flowchart": "https://example.com/jhargram.png",
    "longitude": 86.9980,
    "latitude": 22.4538
  },
  {
    "id": 23,
    "region": "West Bengal",
    "district": "Purba Medinipur",
    "city": "Tamluk",
    "covered_area": ["Haldia", "Contai", "Digha", "Egra"],
    "status": "active",
    "flowchart": "https://example.com/pmedinipur2.png",
    "longitude": 87.9210,
    "latitude": 22.3040
  }
]